osm_id,code,fclass,name,lon,lat
356570996,2082,school,Central Elementary School,-79.88156,37.78891
356571094,2082,school,Clifton Forge High School,-79.8248,37.82242
356573350,2082,school,Moody School,-79.82345,37.81814
356574727,2082,school,Sharon Elementary School,-79.74505,37.81013
356590380,2082,school,Boiling Spring Elementary School,-80.09145,37.68818
356590391,2082,school,Falling Spring Elementary School,-79.97534,37.88762
356590409,2082,school,Selma Public School,-79.84894,37.80235
356592129,2082,school,Industrial School and Farm for Homeless Boys,-80.02367,37.80707
7644324709,2501,supermarket,Kroger,-79.80912,37.8165
