name,address,Is Early Voting,Precincts (Or Locality-wide),Is Drop Off,lon,lat,V11
HERMITAGE BAPTIST CHURCH,"94 WARES BRIDGE RD CHURCH VIEW, VA 23032-2025",False,302 - CHURCH VIEW - 0000,False,-76.67976,37.67865,
MIDDLESEX VOLUNTEER RESCUE SQUAD BLDG,"17684 GENERAL PULLER HWY DELTAVILLE, VA 23043",False,201 - NEW MARKET - 0000,False,-76.33139,37.5545,
Middlesex County Registrar Office,105 BOWDEN STREET SALUDA VA 23149,True,Locality wide location,False,-76.59385,37.60725,
PUBLIC MTG RM COOKS CORNER,"2911 GENERAL PULLER HWY SALUDA, VA 23149-3052",False,101 - SALUDA - 0000,False,-76.56196,37.60375,
THE CRYER CENTER,"7485 GENERAL PULLER HWY LOCUST HILL, VA 23092",False,401- HARMONY VILLAGE - 0000,False,-76.48916,37.58519,
URBANNA FIREHOUSE,"340 VIRGINIA STREET URBANNA, VA 23175",False,"102 - URBANNA - 0001, 102 - URBANNA - 0000",False,-76.57947,37.63507,
YMCA BUILDING,"11487 GENERAL PULLER HWY HARTFIELD, VA 23071",False,501 - WILTON - 0000,False,-76.43918,37.55158,
Middlesex County Registrar Office,105 BOWDEN ST SALUDA VA 23149,True,Locality wide location,False,-76.59385,37.60725,
