osm_id,code,fclass,name,lon,lat
356562193,2082,school,Hardin Reynolds Memorial Elementary School,-80.14644,36.63125
356564949,2082,school,Red Bank Junior High School,-80.42423,36.58153
6223082306,2303,cafe,Crooked Road Cafe,-80.38248,36.73671
356586517,2005,post_office,Patrick Springs Post Office,-80.1995,36.63375
367980994,2009,courthouse,Patrick County Courthouse,-80.26978,36.64236
1888305995,2002,fire_station,Woolwine Volunteer Fire Department,-80.27399,36.78738
1888308926,2005,post_office,Woolwine Post Office,-80.27256,36.78466
1888322031,2002,fire_station,Woolwine Volunteer Fire Department,-80.27492,36.78761
