osm_id,code,fclass,name,lon,lat
356597336,2082,school,King George Middle School,-77.19969,38.28531
2581453417,2501,supermarket,Food Lion,-77.0715,38.33966
6997908178,2303,cafe,Starbucks,-77.0544,38.35037
367980173,2002,fire_station,Company 3,-77.2425,38.32833
367980176,2002,fire_station,King George County Fire / Rescue Company 2 Dahlgren,-77.06508,38.33939
367982273,2002,fire_station,Rescue Squad Station 2,-77.06889,38.33917
367985426,2002,fire_station,Mattaponi Rescue Squad,-77.12722,38.205
367986042,2002,fire_station,Dahlgren Rescue Station 2,-77.0693,38.33936
367986070,2002,fire_station,King George County Fire / Rescue Company 3 Fairview Beach,-77.24256,38.32846
