osm_id,code,fclass,name,lon,lat
356560442,2082,school,Brook Vale High School,-76.41661,37.75125
356560805,2082,school,Chesapeake Academy,-76.4188,37.6588
356563011,2082,school,Lively School,-76.51634,37.78375
356563980,2082,school,New Mollusk School,-76.52829,37.71403
356600821,2082,school,New Lancaster School,-76.47412,37.78208
356600861,2082,school,Lancaster Middle School,-76.3835,37.71285
356600867,2082,school,Mount Jean School,-76.41411,37.69125
356606342,2082,school,Lancaster High School,-76.45671,37.76932
356606496,2082,school,Lancaster Primary School,-76.41651,37.75129
