name,address,Is Early Voting,Precincts (Or Locality-wide),Is Drop Off,lon,lat,V11
CARRIAGE HOUSE AT OAK RIDGE,"2383 OAK RIDGE ROAD ARRINGTON, VA 22922",False,301 - SHIPMAN - 0000,False,-78.87216,37.71262,
GLADSTONE RESCUE SQUAD BLDG,"8834 RICHMOND HIGHWAY GLADSTONE, VA 24553",False,302 - GLADSTONE - 0000,False,-78.83645,37.55033,
LOVINGSTON FIRE DEPT BUILDING,"53 BAKER LANE LOVINGSTON, VA 22949",False,201 - LOVINGSTON - 0000,False,-78.87396,37.76134,
MASSIES MILL RURITAN CLUB,"5439 PATRICK HENRY HIGHWAY ROSELAND, VA 22967",False,401 - ROSELAND - 0000,False,-79.00477,37.73713,
MONTEBELLO FIRE DEPARTMENT,"119 FORK MOUNTAIN LANE MONTEBELLO, VA 24464",False,402 - MONTEBELLO - 0000,False,-79.12987,37.85328,
NELSON CO RESCUE SQUAD BLDG,"8301 IRISH ROAD FABER, VA 22938",False,501 - FABER - 0000,False,-78.74279,37.83154,
ROCKFISH VALLEY FIRE DEPT BLDG,"11100 ROCKFISH VALLEY HIGHWAY AFTON, VA 22920",False,101 - ROCKFISH - 0000,False,-78.83384,37.993,
TUCKAHOE CLUBHOUSE,"37 STONE ORCHARD DR NELLYSFORD, VA 22958",False,502 - NELLYSFORD - 0000,False,-78.87714,37.89255,
WALTONS MTN COMMUNITY CENTER,"6484 ROCKFISH RIVER RD SCHUYLER, VA 22969-2236",False,202 - SCHUYLER - 0000,False,-78.70178,37.79137,
