osm_id,code,fclass,name,lon,lat
356574388,2082,school,Rockfish Valley Elementary School,-78.84224,37.92236
356587867,2082,school,Nelson Junior High School,-78.95252,37.67847
1962198686,2303,cafe,Montebello Cafe,-79.1315,37.85275
2653215955,2405,hostel,Rusty's Hard Time Hollow,-79.02134,37.88945
3108306846,2501,supermarket,Food Lion,-78.87814,37.75359
