name,address,Is Early Voting,Precincts (Or Locality-wide),Is Drop Off,lon,lat,V11
CHRIST LUTHERAN CHURCH,"3810 MEREDITH DR FAIRFAX, VA 22030-3047",False,006 - SIX - 0000,False,-77.31768,38.85572,
DANIELS RUN SCHOOL,"3705 OLD LEE HWY FAIRFAX, VA 22030-1805",False,003 - THREE - 0000,False,-77.29573,38.85222,
FAIRFAX CITY HALL,"10455 ARMSTRONG ST FAIRFAX, VA 22030-3627",False,004 - FOUR - 0000,False,-77.30825,38.84079,
FAIRFAX HIGH SCHOOL,"3501 REBEL RUN FAIRFAX, VA 22030-1827",False,005 - FIVE - 0000,False,-77.28613,38.85992,
FAIRFAX PRESBYTERIAN CHURCH,"10723 MAIN ST FAIRFAX, VA 22030-6905",False,001 - ONE - 0000,False,-77.31759,38.84687,
STACY C. SHERWOOD COMMUNITY CENTER,"3740 OLD LEE HWY FAIRFAX, VA 22030-1865",False,002 - TWO - 0000,False,-77.29928,38.85121,
Fairfax County Registrar Office,12000 GOVERNMENT CENTER PARKWAY SUITE 323 FAIRFAX VA 22035,True,Locality wide location,False,-77.35658,38.85408,
